ID,Name,url,addr,Longitude,Latitude,gisx,gisy,Tel,OpenTime
cafe1,"工寓咖啡<br>             簡介:工業風格二樓咖啡廳.視野光線很棒             電話:02-2908-2308<br>             營業時間:12:00-22:00<br>             地址:新北市新莊區中正路593號2樓",,新北市新莊區中正路593號2樓,121.43291,25.032,,,02-29082308,12:00-22:00
cafe2,"<b><a href='https://www.facebook.com/%E7%90%B3%E5%92%96%E5%95%A1-266140186841942/'>琳咖啡</a></b><br>             電話:02-8992-1236<br>             營業時間: 12:00–22:00<br>             地址:新北市新莊區建興街41巷2號",https://www.facebook.com/%E7%90%B3%E5%92%96%E5%95%A1-266140186841942/,新北市新莊區建興街41巷2號,121.449943,25.037314,,,02-89921236, 12:00–22:00
cafe3,"<b><a href='https://www.facebook.com/peterbettercafe/'>Peter Better Cafe</a></b><br>             電話:02-2201-3699<br>             營業時間: 08:00–22:00<br>             地址:新北市新莊區新泰路109號",https://www.facebook.com/peterbettercafe/,新北市新莊區新泰路109號,121.448841,25.035075,,,02-22013699, 08:00–22:00
cafe4,"<b><a href='https://www.facebook.com/NewTaipeiPorchCafe'>門廊咖啡</a></b><br>             電話:02-2901-1297<br>             營業時間:12:00–21:30<br>             地址:新北市新莊區中正路514巷33弄10號",https://www.facebook.com/NewTaipeiPorchCafe,新北市新莊區中正路514巷33弄10號,121.431777,25.032745,,,02-29011297,12:00–21:30
cafe5,"<b><a href='https://www.facebook.com/goodfoodmemory/'>好食紀</a></b><br>             電話:02-2992-0630<br>             營業時間:週二 ~ 週日 11:00 am ~ 21:00 pm<br>             地址:新北市新莊區中興街14號",https://www.facebook.com/goodfoodmemory/,新北市新莊區中興街14號,121.449603,25.036269,,,02-29920630,週二 ~ 週日  11:00 am ~ 21:00 pm
cafe6,"<b><a href='https://www.facebook.com/FRoomCafe/'>混日子咖啡館</a></b><br>             電話:02-2277-5558<br>             營業時間:平日11:00-21:30、週末10:00-21:30<br>             地址:新北市新莊區中和街155巷24弄18號",https://www.facebook.com/FRoomCafe/,新北市新莊區中和街155巷24弄18號,121.446691,25.050298,,,02-22775558,平日11:00-21:30、週末10:00-21:30